{
 "source": "משטרת ישראל — נתוני פשיעה",
 "source_en": "Israel Police — recorded offences",
 "url": "https://data.gov.il/dataset/crimes",
 "period": "2025 (Q1–Q4)",
 "records": 395294,
 "note": "נתונים סטטיסטיים רשמיים — לא אירועים חיים",
 "cities": [
  {
   "city": "תל אביב יפו",
   "lat": 32.0853,
   "lng": 34.78181,
   "total": 37064,
   "cats": {
    "עבירות כלפי הרכוש": 19806,
    "עבירות סדר ציבורי": 8217,
    "עבירות נגד גוף": 3930,
    "עבירות כלפי המוסר": 1833,
    "עבירות מרמה": 1517,
    "עבירות כלכליות": 511
   }
  },
  {
   "city": "ירושלים",
   "lat": 31.77885,
   "lng": 35.22579,
   "total": 29910,
   "cats": {
    "עבירות סדר ציבורי": 10530,
    "עבירות כלפי הרכוש": 8354,
    "עבירות נגד גוף": 5255,
    "עבירות מרמה": 1631,
    "עבירות כלפי המוסר": 1165,
    "עבירות בטחון": 1119
   }
  },
  {
   "city": "באר שבע",
   "lat": 31.24574,
   "lng": 34.79252,
   "total": 16449,
   "cats": {
    "עבירות סדר ציבורי": 5944,
    "עבירות כלפי הרכוש": 5299,
    "עבירות נגד גוף": 3032,
    "עבירות מרמה": 791,
    "עבירות כלפי המוסר": 496,
    "עבירות מין": 290
   }
  },
  {
   "city": "חיפה",
   "lat": 32.81912,
   "lng": 34.99839,
   "total": 12478,
   "cats": {
    "עבירות כלפי הרכוש": 4619,
    "עבירות סדר ציבורי": 3582,
    "עבירות נגד גוף": 2061,
    "עבירות מרמה": 890,
    "עבירות כלפי המוסר": 581,
    "עבירות כלכליות": 317
   }
  },
  {
   "city": "אשדוד",
   "lat": 31.79773,
   "lng": 34.65299,
   "total": 10042,
   "cats": {
    "עבירות סדר ציבורי": 3577,
    "עבירות כלפי הרכוש": 3001,
    "עבירות נגד גוף": 1921,
    "עבירות מרמה": 621,
    "עבירות כלפי המוסר": 369,
    "עבירות מין": 195
   }
  },
  {
   "city": "ראשון לציון",
   "lat": 31.96357,
   "lng": 34.81011,
   "total": 9750,
   "cats": {
    "עבירות כלפי הרכוש": 3916,
    "עבירות סדר ציבורי": 2594,
    "עבירות נגד גוף": 1537,
    "עבירות מרמה": 722,
    "עבירות כלפי המוסר": 258,
    "עבירות כלכליות": 257
   }
  },
  {
   "city": "נתניה",
   "lat": 32.32862,
   "lng": 34.85662,
   "total": 8644,
   "cats": {
    "עבירות כלפי הרכוש": 3573,
    "עבירות סדר ציבורי": 2382,
    "עבירות נגד גוף": 1489,
    "עבירות מרמה": 480,
    "עבירות כלפי המוסר": 256,
    "עבירות כלכליות": 173
   }
  },
  {
   "city": "פתח תקווה",
   "lat": 32.08776,
   "lng": 34.886,
   "total": 8610,
   "cats": {
    "עבירות כלפי הרכוש": 3625,
    "עבירות סדר ציבורי": 2246,
    "עבירות נגד גוף": 1334,
    "עבירות מרמה": 621,
    "עבירות כלפי המוסר": 268,
    "עבירות כלכליות": 190
   }
  },
  {
   "city": "אשקלון",
   "lat": 31.66532,
   "lng": 34.56504,
   "total": 8324,
   "cats": {
    "עבירות סדר ציבורי": 2832,
    "עבירות כלפי הרכוש": 2455,
    "עבירות נגד גוף": 1572,
    "עבירות מרמה": 486,
    "עבירות כלפי המוסר": 415,
    "עבירות מין": 151
   }
  },
  {
   "city": "חולון",
   "lat": 32.01931,
   "lng": 34.78041,
   "total": 8100,
   "cats": {
    "עבירות כלפי הרכוש": 3068,
    "עבירות סדר ציבורי": 2392,
    "עבירות נגד גוף": 1321,
    "עבירות מרמה": 428,
    "עבירות כלפי המוסר": 383,
    "עבירות כלכליות": 178
   }
  },
  {
   "city": "בת ים",
   "lat": 32.01546,
   "lng": 34.75053,
   "total": 7781,
   "cats": {
    "עבירות כלפי הרכוש": 2970,
    "עבירות סדר ציבורי": 2266,
    "עבירות נגד גוף": 1228,
    "עבירות מרמה": 539,
    "עבירות כלפי המוסר": 342,
    "עבירות כלכליות": 198
   }
  },
  {
   "city": "רמת גן",
   "lat": 32.06869,
   "lng": 34.82468,
   "total": 6217,
   "cats": {
    "עבירות כלפי הרכוש": 2711,
    "עבירות סדר ציבורי": 1727,
    "עבירות נגד גוף": 760,
    "עבירות מרמה": 407,
    "עבירות כלפי המוסר": 287,
    "עבירות כלכליות": 116
   }
  },
  {
   "city": "אילת",
   "lat": 29.55693,
   "lng": 34.94979,
   "total": 5728,
   "cats": {
    "עבירות סדר ציבורי": 2227,
    "עבירות כלפי הרכוש": 1361,
    "עבירות נגד גוף": 1095,
    "עבירות כלפי המוסר": 417,
    "עבירות מרמה": 219,
    "עבירות מין": 115
   }
  },
  {
   "city": "רמלה",
   "lat": 31.928,
   "lng": 34.86235,
   "total": 4704,
   "cats": {
    "עבירות כלפי הרכוש": 1561,
    "עבירות סדר ציבורי": 1539,
    "עבירות נגד גוף": 841,
    "עבירות מרמה": 197,
    "עבירות כלפי המוסר": 175,
    "עבירות בטחון": 125
   }
  },
  {
   "city": "לוד",
   "lat": 31.9489,
   "lng": 34.88849,
   "total": 4687,
   "cats": {
    "עבירות סדר ציבורי": 1579,
    "עבירות כלפי הרכוש": 1541,
    "עבירות נגד גוף": 637,
    "עבירות מרמה": 267,
    "עבירות כלפי המוסר": 195,
    "עבירות בטחון": 157
   }
  },
  {
   "city": "רחובות",
   "lat": 31.89525,
   "lng": 34.81056,
   "total": 4663,
   "cats": {
    "עבירות כלפי הרכוש": 1707,
    "עבירות סדר ציבורי": 1456,
    "עבירות נגד גוף": 773,
    "עבירות מרמה": 295,
    "עבירות מין": 134,
    "עבירות כלפי המוסר": 95
   }
  },
  {
   "city": "חדרה",
   "lat": 32.44074,
   "lng": 34.94011,
   "total": 4380,
   "cats": {
    "עבירות כלפי הרכוש": 1534,
    "עבירות סדר ציבורי": 1308,
    "עבירות נגד גוף": 792,
    "עבירות מרמה": 216,
    "עבירות כלפי המוסר": 195,
    "עבירות מין": 114
   }
  },
  {
   "city": "בני ברק",
   "lat": 32.08739,
   "lng": 34.83244,
   "total": 4161,
   "cats": {
    "עבירות כלפי הרכוש": 1468,
    "עבירות סדר ציבורי": 1371,
    "עבירות נגד גוף": 632,
    "עבירות מרמה": 225,
    "עבירות מין": 157,
    "עבירות כלפי המוסר": 146
   }
  },
  {
   "city": "רהט",
   "lat": 31.39336,
   "lng": 34.75468,
   "total": 4078,
   "cats": {
    "עבירות סדר ציבורי": 1936,
    "עבירות כלפי הרכוש": 770,
    "עבירות נגד גוף": 667,
    "עבירות בטחון": 270,
    "עבירות מרמה": 167,
    "עבירות כלפי המוסר": 81
   }
  },
  {
   "city": "הרצליה",
   "lat": 32.16563,
   "lng": 34.8469,
   "total": 3887,
   "cats": {
    "עבירות כלפי הרכוש": 1661,
    "עבירות סדר ציבורי": 1107,
    "עבירות נגד גוף": 589,
    "עבירות מרמה": 186,
    "עבירות כלפי המוסר": 149,
    "עבירות מין": 72
   }
  },
  {
   "city": "נצרת",
   "lat": 32.70663,
   "lng": 35.30482,
   "total": 3692,
   "cats": {
    "עבירות סדר ציבורי": 1648,
    "עבירות כלפי הרכוש": 816,
    "עבירות נגד גוף": 558,
    "עבירות בטחון": 201,
    "עבירות מרמה": 164,
    "עבירות כלפי המוסר": 153
   }
  },
  {
   "city": "כפר סבא",
   "lat": 32.17735,
   "lng": 34.90746,
   "total": 3380,
   "cats": {
    "עבירות כלפי הרכוש": 1658,
    "עבירות סדר ציבורי": 864,
    "עבירות נגד גוף": 393,
    "עבירות מרמה": 197,
    "עבירות מין": 73,
    "עבירות תנועה": 61
   }
  },
  {
   "city": "קרית גת",
   "lat": 31.6094,
   "lng": 34.7712,
   "total": 3371,
   "cats": {
    "עבירות סדר ציבורי": 1209,
    "עבירות כלפי הרכוש": 939,
    "עבירות נגד גוף": 671,
    "עבירות מרמה": 167,
    "עבירות כלפי המוסר": 162,
    "עבירות מין": 76
   }
  },
  {
   "city": "בית שמש",
   "lat": 31.74621,
   "lng": 34.98868,
   "total": 3225,
   "cats": {
    "עבירות סדר ציבורי": 1310,
    "עבירות כלפי הרכוש": 731,
    "עבירות נגד גוף": 582,
    "עבירות מרמה": 212,
    "עבירות מין": 150,
    "עבירות כלפי המוסר": 128
   }
  },
  {
   "city": "עפולה",
   "lat": 32.60756,
   "lng": 35.28909,
   "total": 2915,
   "cats": {
    "עבירות סדר ציבורי": 1006,
    "עבירות כלפי הרכוש": 869,
    "עבירות נגד גוף": 537,
    "עבירות מרמה": 152,
    "עבירות כלפי המוסר": 148,
    "עבירות מין": 70
   }
  },
  {
   "city": "טבריה",
   "lat": 32.79385,
   "lng": 35.53286,
   "total": 2829,
   "cats": {
    "עבירות סדר ציבורי": 1088,
    "עבירות כלפי הרכוש": 780,
    "עבירות נגד גוף": 590,
    "עבירות מרמה": 108,
    "עבירות מין": 96,
    "עבירות כלפי המוסר": 84
   }
  },
  {
   "city": "עכו",
   "lat": 32.92817,
   "lng": 35.07564,
   "total": 2773,
   "cats": {
    "עבירות סדר ציבורי": 919,
    "עבירות כלפי הרכוש": 851,
    "עבירות נגד גוף": 554,
    "עבירות כלפי המוסר": 197,
    "עבירות מרמה": 93,
    "עבירות בטחון": 47
   }
  },
  {
   "city": "נוף הגליל",
   "lat": 32.70231,
   "lng": 35.31832,
   "total": 2555,
   "cats": {
    "עבירות סדר ציבורי": 1020,
    "עבירות כלפי הרכוש": 650,
    "עבירות נגד גוף": 466,
    "עבירות כלפי המוסר": 125,
    "עבירות מרמה": 116,
    "עבירות כלכליות": 62
   }
  },
  {
   "city": "טמרה",
   "lat": 32.85481,
   "lng": 35.19668,
   "total": 2366,
   "cats": {
    "עבירות סדר ציבורי": 1063,
    "עבירות כלפי הרכוש": 581,
    "עבירות נגד גוף": 314,
    "עבירות בטחון": 170,
    "עבירות מרמה": 82,
    "עבירות כלפי המוסר": 45
   }
  },
  {
   "city": "נהריה",
   "lat": 33.00631,
   "lng": 35.09456,
   "total": 2322,
   "cats": {
    "עבירות סדר ציבורי": 736,
    "עבירות כלפי הרכוש": 687,
    "עבירות נגד גוף": 446,
    "עבירות כלפי המוסר": 201,
    "עבירות מרמה": 128,
    "עבירות מין": 41
   }
  },
  {
   "city": "טייבה",
   "lat": 32.26712,
   "lng": 35.0089,
   "total": 2077,
   "cats": {
    "עבירות סדר ציבורי": 917,
    "עבירות כלפי הרכוש": 382,
    "עבירות נגד גוף": 322,
    "עבירות בטחון": 136,
    "עבירות כלפי המוסר": 125,
    "עבירות מרמה": 114
   }
  },
  {
   "city": "קרית אתא",
   "lat": 32.81159,
   "lng": 35.11637,
   "total": 2049,
   "cats": {
    "עבירות סדר ציבורי": 657,
    "עבירות כלפי הרכוש": 653,
    "עבירות נגד גוף": 320,
    "עבירות כלפי המוסר": 157,
    "עבירות מרמה": 135,
    "עבירות מין": 56
   }
  },
  {
   "city": "ראש העין",
   "lat": 32.09529,
   "lng": 34.95332,
   "total": 2030,
   "cats": {
    "עבירות סדר ציבורי": 714,
    "עבירות כלפי הרכוש": 654,
    "עבירות נגד גוף": 354,
    "עבירות מרמה": 103,
    "עבירות מין": 64,
    "עבירות כלפי המוסר": 49
   }
  },
  {
   "city": "דימונה",
   "lat": 31.06866,
   "lng": 35.03665,
   "total": 2002,
   "cats": {
    "עבירות סדר ציבורי": 702,
    "עבירות כלפי הרכוש": 594,
    "עבירות נגד גוף": 388,
    "עבירות כלפי המוסר": 100,
    "עבירות מרמה": 100,
    "עבירות מין": 44
   }
  },
  {
   "city": "אום אל-פחם",
   "lat": 32.51584,
   "lng": 35.15249,
   "total": 1983,
   "cats": {
    "עבירות סדר ציבורי": 785,
    "עבירות כלפי הרכוש": 479,
    "עבירות נגד גוף": 296,
    "עבירות בטחון": 200,
    "עבירות מרמה": 70,
    "עבירות כלפי המוסר": 63
   }
  },
  {
   "city": "שפרעם",
   "lat": 32.80636,
   "lng": 35.17126,
   "total": 1981,
   "cats": {
    "עבירות סדר ציבורי": 837,
    "עבירות כלפי הרכוש": 523,
    "עבירות נגד גוף": 261,
    "עבירות מרמה": 112,
    "עבירות בטחון": 101,
    "עבירות כלפי המוסר": 61
   }
  },
  {
   "city": "הוד השרון",
   "lat": 32.1562,
   "lng": 34.89304,
   "total": 1951,
   "cats": {
    "עבירות כלפי הרכוש": 881,
    "עבירות סדר ציבורי": 610,
    "עבירות נגד גוף": 213,
    "עבירות מרמה": 110,
    "עבירות כלפי המוסר": 52,
    "עבירות מין": 28
   }
  },
  {
   "city": "רעננה",
   "lat": 32.18602,
   "lng": 34.86784,
   "total": 1890,
   "cats": {
    "עבירות כלפי הרכוש": 888,
    "עבירות סדר ציבורי": 508,
    "עבירות נגד גוף": 254,
    "עבירות מרמה": 107,
    "עבירות כלפי המוסר": 50,
    "עבירות מין": 31
   }
  },
  {
   "city": "מודיעין-מכבים-רעות",
   "lat": 31.90857,
   "lng": 35.00693,
   "total": 1864,
   "cats": {
    "עבירות כלפי הרכוש": 904,
    "עבירות סדר ציבורי": 422,
    "עבירות נגד גוף": 186,
    "עבירות מרמה": 129,
    "עבירות כלפי המוסר": 83,
    "עבירות מין": 36
   }
  },
  {
   "city": "נתיבות",
   "lat": 31.42135,
   "lng": 34.58843,
   "total": 1839,
   "cats": {
    "עבירות סדר ציבורי": 677,
    "עבירות כלפי הרכוש": 497,
    "עבירות נגד גוף": 338,
    "עבירות מרמה": 126,
    "עבירות כלפי המוסר": 71,
    "עבירות מין": 65
   }
  },
  {
   "city": "יבנה",
   "lat": 31.87689,
   "lng": 34.7383,
   "total": 1835,
   "cats": {
    "עבירות סדר ציבורי": 604,
    "עבירות כלפי הרכוש": 598,
    "עבירות נגד גוף": 277,
    "עבירות מרמה": 111,
    "עבירות כלפי המוסר": 100,
    "עבירות כלכליות": 46
   }
  },
  {
   "city": "גבעתיים",
   "lat": 32.07296,
   "lng": 34.81133,
   "total": 1750,
   "cats": {
    "עבירות כלפי הרכוש": 849,
    "עבירות סדר ציבורי": 432,
    "עבירות נגד גוף": 165,
    "עבירות מרמה": 118,
    "עבירות כלפי המוסר": 87,
    "עבירות כלכליות": 33
   }
  },
  {
   "city": "אור יהודה",
   "lat": 32.027,
   "lng": 34.86299,
   "total": 1746,
   "cats": {
    "עבירות סדר ציבורי": 595,
    "עבירות כלפי הרכוש": 570,
    "עבירות נגד גוף": 302,
    "עבירות מרמה": 101,
    "עבירות כלפי המוסר": 74,
    "עבירות מין": 35
   }
  },
  {
   "city": "שדרות",
   "lat": 31.52647,
   "lng": 34.59697,
   "total": 1703,
   "cats": {
    "עבירות סדר ציבורי": 676,
    "עבירות נגד גוף": 388,
    "עבירות כלפי הרכוש": 347,
    "עבירות מרמה": 102,
    "עבירות כלפי המוסר": 95,
    "עבירות מין": 37
   }
  },
  {
   "city": "טירה",
   "lat": 32.23469,
   "lng": 34.95446,
   "total": 1672,
   "cats": {
    "עבירות סדר ציבורי": 877,
    "עבירות נגד גוף": 288,
    "עבירות כלפי הרכוש": 271,
    "עבירות מרמה": 78,
    "עבירות בטחון": 57,
    "עבירות כלפי המוסר": 41
   }
  },
  {
   "city": "קרית מלאכי",
   "lat": 31.7316,
   "lng": 34.74461,
   "total": 1623,
   "cats": {
    "עבירות סדר ציבורי": 645,
    "עבירות כלפי הרכוש": 426,
    "עבירות נגד גוף": 312,
    "עבירות מרמה": 73,
    "עבירות כלפי המוסר": 57,
    "עבירות מין": 37
   }
  },
  {
   "city": "קרית ים",
   "lat": 32.85022,
   "lng": 35.07032,
   "total": 1606,
   "cats": {
    "עבירות כלפי הרכוש": 533,
    "עבירות סדר ציבורי": 425,
    "עבירות נגד גוף": 284,
    "עבירות כלפי המוסר": 138,
    "עבירות מרמה": 111,
    "עבירות כלכליות": 57
   }
  },
  {
   "city": "אופקים",
   "lat": 31.31258,
   "lng": 34.62085,
   "total": 1565,
   "cats": {
    "עבירות סדר ציבורי": 616,
    "עבירות כלפי הרכוש": 469,
    "עבירות נגד גוף": 239,
    "עבירות מרמה": 75,
    "עבירות כלפי המוסר": 74,
    "עבירות מין": 33
   }
  },
  {
   "city": "ערערה-בנגב",
   "lat": 31.15951,
   "lng": 35.02305,
   "total": 1512,
   "cats": {
    "עבירות סדר ציבורי": 763,
    "עבירות כלפי הרכוש": 250,
    "עבירות נגד גוף": 210,
    "עבירות בטחון": 198,
    "עבירות מרמה": 19,
    "עבירות תנועה": 16
   }
  },
  {
   "city": "ערד",
   "lat": 31.26122,
   "lng": 35.21458,
   "total": 1497,
   "cats": {
    "עבירות סדר ציבורי": 658,
    "עבירות כלפי הרכוש": 359,
    "עבירות נגד גוף": 261,
    "עבירות מרמה": 97,
    "עבירות כלפי המוסר": 43,
    "עבירות מין": 23
   }
  },
  {
   "city": "כרמיאל",
   "lat": 32.91591,
   "lng": 35.29343,
   "total": 1471,
   "cats": {
    "עבירות סדר ציבורי": 474,
    "עבירות כלפי הרכוש": 431,
    "עבירות נגד גוף": 278,
    "עבירות מרמה": 132,
    "עבירות כלפי המוסר": 47,
    "עבירות כלכליות": 42
   }
  },
  {
   "city": "פרדס חנה-כרכור",
   "lat": 32.475,
   "lng": 34.97514,
   "total": 1435,
   "cats": {
    "עבירות כלפי הרכוש": 537,
    "עבירות סדר ציבורי": 472,
    "עבירות נגד גוף": 218,
    "עבירות כלפי המוסר": 57,
    "עבירות מרמה": 54,
    "עבירות מין": 44
   }
  },
  {
   "city": "סח'נין",
   "lat": 32.86381,
   "lng": 35.30232,
   "total": 1431,
   "cats": {
    "עבירות סדר ציבורי": 648,
    "עבירות כלפי הרכוש": 355,
    "עבירות נגד גוף": 183,
    "עבירות מרמה": 85,
    "עבירות בטחון": 84,
    "עבירות כלכליות": 25
   }
  },
  {
   "city": "קרית ביאליק",
   "lat": 32.82858,
   "lng": 35.08449,
   "total": 1410,
   "cats": {
    "עבירות כלפי הרכוש": 500,
    "עבירות סדר ציבורי": 420,
    "עבירות נגד גוף": 237,
    "עבירות מרמה": 114,
    "עבירות כלפי המוסר": 44,
    "עבירות כלכליות": 42
   }
  },
  {
   "city": "ג'סר א זרקא",
   "lat": 32.53775,
   "lng": 34.91137,
   "total": 1410,
   "cats": {
    "עבירות סדר ציבורי": 519,
    "עבירות כלפי הרכוש": 326,
    "עבירות נגד גוף": 287,
    "עבירות כלפי המוסר": 147,
    "עבירות בטחון": 91,
    "עבירות מין": 9
   }
  },
  {
   "city": "קרית מוצקין",
   "lat": 32.83637,
   "lng": 35.07521,
   "total": 1407,
   "cats": {
    "עבירות כלפי הרכוש": 478,
    "עבירות סדר ציבורי": 404,
    "עבירות נגד גוף": 246,
    "עבירות מרמה": 110,
    "עבירות כלפי המוסר": 67,
    "עבירות כלכליות": 45
   }
  },
  {
   "city": "רמת השרון",
   "lat": 32.14313,
   "lng": 34.83809,
   "total": 1292,
   "cats": {
    "עבירות כלפי הרכוש": 568,
    "עבירות סדר ציבורי": 368,
    "עבירות נגד גוף": 125,
    "עבירות מרמה": 78,
    "עבירות כלפי המוסר": 73,
    "עבירות מין": 30
   }
  },
  {
   "city": "תל שבע",
   "lat": 31.24565,
   "lng": 34.85777,
   "total": 1253,
   "cats": {
    "עבירות סדר ציבורי": 548,
    "עבירות נגד גוף": 213,
    "עבירות כלפי הרכוש": 205,
    "עבירות בטחון": 153,
    "עבירות כלפי המוסר": 66,
    "עבירות מרמה": 28
   }
  },
  {
   "city": "נס ציונה",
   "lat": 31.92956,
   "lng": 34.79906,
   "total": 1182,
   "cats": {
    "עבירות כלפי הרכוש": 480,
    "עבירות סדר ציבורי": 357,
    "עבירות נגד גוף": 156,
    "עבירות מרמה": 74,
    "עבירות מין": 40,
    "עבירות כלפי המוסר": 26
   }
  },
  {
   "city": "קרית אונו",
   "lat": 32.05811,
   "lng": 34.85809,
   "total": 1177,
   "cats": {
    "עבירות כלפי הרכוש": 438,
    "עבירות סדר ציבורי": 376,
    "עבירות נגד גוף": 170,
    "עבירות מרמה": 112,
    "עבירות מין": 22,
    "עבירות תנועה": 18
   }
  }
 ]
}